[
    {
      "name": "Mostar Diving Platform",
      "region": "Mostar",
      "country": "Bosnia and Herzegovina",
      "type": "platform",
      "lat": 43.3365,
      "lng": 17.8154, 
      "heights": [5, 7, 12, 18],
      "tags": ["cliff"],
      "notes": "A really cool spot with 3 different platform heights and some rocks nearby that can be jumped off. A great place to practice for the 22m bridge just upstream. Be careful of the cold water and the very strong tide. Also watch out for speedboats coming down the river."
    },
    {
      "name": "Maidenhead Bridge",
      "region": "Maidenhead",
      "country": "England",
      "type": "bridge",
      "lat": 51.5275,
      "lng": -0.6966
    },
    {
      "name": "Broad Haven",
      "region": "Pembrokeshire",
      "country": "Wales",
      "type": "cliff",
      "lat": 51.6083,
      "lng": -4.9149
    },
    {
      "name": "Lydstep Caverns",
      "region": "Pembrokeshire",
      "country": "Wales",
      "type": "cliff",
      "lat": 51.6442,
      "lng": -4.7658
    },
    {
      "name": "Lydstep Cliffs",
      "region": "Pembrokeshire",
      "country": "Wales",
      "type": "cliff",
      "lat": 51.6432,
      "lng": -4.7647
    },
    {
      "name": "Bundoran Diving Board",
      "region": "Bundoran",
      "country": "Ireland",
      "type": "cliff",
      "lat": 54.4847,
      "lng": -8.279
    },
    {
      "name": "Lion's Head",
      "region": "Howth",
      "country": "Ireland",
      "type": "cliff",
      "lat": 53.3634,
      "lng": -6.0613
    },
    {
      "name": "Guillamene Swimming Cove",
      "region": "Newtown",
      "country": "Ireland",
      "type": "board",
      "lat": 52.1438,
      "lng": -7.1648
    },
    {
      "name": "Kilkee Diving Boards",
      "region": "Kilkee",
      "country": "Ireland",
      "type": "board",
      "lat": 52.6818,
      "lng": -9.6603
    },
    {
      "name": "Blackrock Diving Tower",
      "region": "Galway",
      "country": "Ireland",
      "type": "platform",
      "lat": 53.2562,
      "lng": -9.0922
    },
    {
      "name": "Dunseverick Harbour",
      "region": "Dunseverick",
      "country": "Northern Ireland",
      "type": "platform",
      "lat": 55.2378,
      "lng": -6.4288
    },
    {
      "name": "Blue Lagoon",
      "region": "Pembrokeshire",
      "country": "Wales",
      "type": "platform",
      "lat": 51.938,
      "lng": -5.2091
    },
    {
      "name": "Summerleaze Footbridge",
      "region": "Windsor",
      "country": "England",
      "type": "bridge",
      "lat": 51.4998,
      "lng": -0.6813,
      "tags": ["swing"],
      "heights": [11]
    },
    {
      "name": "Black Moss Pot",
      "region": "Lake District",
      "country": "England",
      "type": "cliff",
      "lat": 54.4919,
      "lng": -3.1328,
      "heights": [6]
    },
    {
      "name": "Dancing Ledge",
      "region": "Swanage",
      "country": "England",
      "type": "cliff",
      "lat": 50.5917,
      "lng": -2.0046,
      "heights": [2, 5, 15],
      "notes": "An amazing crag just outside of Swanage with a variety of heights culminating in a big 15 metre jump marked by a white arrow at the top. This crag is also used by local coasteering companies so you know its a good cliff jumping spot. The approach is a 10-15 minute walk up/down a big hill. Keep in mind the depths vary with tide, especially the big 15m, be careful."
    },
    {
      "name": "Old Bridge",
      "region": "Mostar",
      "country": "Bosnia and Herzegovina",
      "type": "bridge",
      "lat": 43.3374,
      "lng": 17.815,
      "heights": [22],
      "notes": "Popular Red Bull spot. Also pay the dive school to jump"
    },
    {
      "name": "Newquay Harbour",
      "region": "Cornwall",
      "country": "England",
      "type": "platform",
      "lat": 50.4176,
      "lng": -5.0866,
      "notes": "A nice spot that has a lots of takeoffs and lots of heights protected by the harbour, but you can also choose to jump out to sea too. There is also some more takeoffs round the back of the harbour. Have an explore and have some fun. Be wary of boats and low tide."
    },
    {
      "name": "Coliemore Harbour",
      "region": "Dublin",
      "country": "Ireland",
      "type": "platform",
      "lat": 53.2748,
      "lng": -6.0932
    },
    {
      "name": "Medley Bridge",
      "region": "Oxford",
      "country": "England",
      "type": "bridge",
      "lat": 51.7638,
      "lng": -1.2802
    },
    {
      "name": "Gold Diggings Quarry",
      "region": "Liskeard",
      "country": "England",
      "type": "cliff",
      "lat": 50.5249,
      "lng": -4.4715,
      "heights": [10, 12]
    },
    {
      "name": "Porth Island Headland",
      "region": "Cornwall",
      "country": "England",
      "type": "cliff",
      "lat": 50.4273,
      "lng": -5.0658,
      "heights": [17]
    },
    {
      "name": "Maunsell Sea Forts",
      "region": "Kent",
      "country": "England",
      "type": "platform",
      "lat": 51.4806,
      "lng": 1.0749
    },
    {
      "name": "Arch of Cabo San Lucas",
      "region": "Cabo San Lucas",
      "country": "Mexico",
      "type": "cliff",
      "lat": 22.876,
      "lng": -109.8947
    },
    {
      "name": "The Wormhole",
      "region": "Inishmore",
      "country": "Ireland",
      "type": "cliff",
      "lat": 53.1216,
      "lng": -9.7548
    },
    {
      "name": "La Grotta Bar",
      "region": "Paleokastritsa",
      "country": "Greece",
      "type": "board",
      "lat": 39.6738,
      "lng": 19.7186,
      "tags": ["cliff"],
      "notes": "A stunning cove with a diving board that isn't too high, perfect for a couple jumps while everyone at the bar watches and films you. There is also a rope attached to the cliff to the right of the board which can be used to climb up to a higher spot. Careful of the strong/big waves."
    },
    {
      "name": "Canal D'Amour",
      "region": "Sidari",
      "country": "Greece",
      "type": "cliff",
      "lat": 39.7972,
      "lng": 19.6981
    },
    {
      "name": "Praia de São Rafael",
      "region": "Albufeira",
      "country": "Portugal",
      "type": "cliff",
      "lat": 37.0748,
      "lng": -8.2804
    },
    {
      "name": "Blackbrook Reservoir",
      "region": "Shepshed",
      "country": "England",
      "type": "bridge",
      "lat": 52.7492,
      "lng": -1.3141,
      "notes": "Height varies rapidly with reservoir level. Depth check debris and large rocks underwater"
    },
    {
      "name": "Cliff Jump Pula",
      "region": "Pula",
      "country": "Croatia",
      "type": "cliff",
      "lat": 44.8609,
      "lng": 13.8021
    },
    {
      "name": "Galebove stijene",
      "region": "Pula",
      "country": "Croatia",
      "type": "cliff",
      "lat": 44.8607,
      "lng": 13.8005
    },
    {
      "name": "Kanjon Muzil",
      "region": "Pula",
      "country": "Croatia",
      "type": "cliff",
      "lat": 44.8614,
      "lng": 13.8045
    },
    {
      "name": "Midway",
      "region": "Tennessee",
      "country": "United States",
      "type": "cliff",
      "lat": 36.5172,
      "lng": -85.1561
    },
    {
      "name": "Lovelady",
      "region": "Tennessee",
      "country": "United States",
      "type": "cliff",
      "lat": 36.6179,
      "lng": -85.1864
    },
    {
      "name": "Waterswallows Quarry",
      "region": "Buxton",
      "country": "England",
      "type": "cliff",
      "lat": 53.2692,
      "lng": -1.8807
    },
    {
      "name": "Swithland Quarry",
      "region": "Loughborough",
      "country": "England",
      "type": "cliff",
      "lat": 52.7042,
      "lng": -1.2037
    },
    {
      "name": "Charnwood Quarry",
      "region": "Loughborough",
      "country": "England",
      "type": "cliff",
      "lat": 52.7479,
      "lng": -1.2704,
      "notes": "Difficult to access now"
    },
    {
      "name": "Faskally Bridges",
      "region": "Pitlochry",
      "country": "Scotland",
      "type": "bridge",
      "lat": 56.7067,
      "lng": -3.7528,
      "heights": [9, 18]
    },
    {
      "name": "Easdale Island Quarries",
      "region": "Easdale",
      "country": "Scotland",
      "type": "cliff",
      "lat": 56.2905,
      "lng": -5.6533
    },
    {
      "name": "Right Angle Falls",
      "region": "Ballachulish",
      "country": "Scotland",
      "type": "cliff",
      "lat": 56.6253,
      "lng": -4.9059
    },
    {
      "name": "Glyn Rhonwy/Mancer Quarry",
      "region": "Llanberis",
      "country": "Wales",
      "type": "cliff",
      "lat": 53.126,
      "lng": -4.1433,
      "notes": "Quite hidden, access is through a tunnel I think"
    },
    {
      "name": "Dorothea Quarry",
      "region": "Talysarn",
      "country": "Wales",
      "type": "cliff",
      "lat": 53.055,
      "lng": -4.2425,
      "heights": [11, 19]
    },
    {
      "name": "Middlepeak Quarry",
      "region": "Matlock",
      "country": "England",
      "type": "cliff",
      "lat": 53.0898,
      "lng": -1.583
    },
    {
      "name": "Berry Head",
      "region": "Brixham",
      "country": "England",
      "type": "roof",
      "lat": 50.4008,
      "lng": -3.4864,
      "tags": ["cliff"],
      "heights": [15]
    },
    {
      "name": "Plymouth Hoe",
      "region": "Plymouth",
      "country": "England",
      "type": "cliff",
      "lat": 50.3634,
      "lng": -4.1466
    },
    {
      "name": "Long Quarry Point",
      "region": "Torquay",
      "country": "England",
      "type": "cliff",
      "lat": 50.476,
      "lng": -3.4993
    },
    {
      "name": "Big Mac' Torquay Cliff",
      "region": "Torquay",
      "country": "England",
      "type": "cliff",
      "lat": 50.4552,
      "lng": -3.5204
    },
    {
      "name": "Okeover Bridge",
      "region": "Ashbourne",
      "country": "England",
      "type": "bridge",
      "lat": 53.0302,
      "lng": -1.7574,
      "heights": [8]
    },
    {
      "name": "Penton Bridge",
      "region": "Carlisle",
      "country": "England",
      "type": "bridge",
      "lat": 55.0881,
      "lng": -2.8901,
      "heights": [11]
    },
    {
      "name": "Mugdock Quarry",
      "region": "Glasgow",
      "country": "Scotland",
      "type": "cliff",
      "lat": 55.9697,
      "lng": -4.3179
    },
    {
      "name": "Falls of Falloch",
      "region": "Inverarnan",
      "country": "Scotland",
      "type": "cliff",
      "lat": 56.35,
      "lng": -4.6952
    },
    {
      "name": "Brig o' Balgownie",
      "region": "Aberdeen",
      "country": "Scotland",
      "type": "bridge",
      "lat": 57.1773,
      "lng": -2.0985,
      "heights": [14]
    },
    {
      "name": "Arbroath Cliffs",
      "region": "Arbroath",
      "country": "Scotland",
      "type": "cliff",
      "lat": 56.5654,
      "lng": -2.5431
    },
    {
      "name": "Tillyfourie Quarry",
      "region": "Aberdeen",
      "country": "Scotland",
      "type": "cliff",
      "lat": 57.205,
      "lng": -2.5880,
      "tags": ["swing"]
    },
    {
      "name": "Scotsman's Bay",
      "region": "Dublin",
      "country": "Ireland",
      "type": "cliff",
      "lat": 53.291,
      "lng": -6.1257
    },
    {
      "name": "Forty Foot",
      "region": "Dublin",
      "country": "Ireland",
      "type": "cliff",
      "lat": 53.2907,
      "lng": -6.1135
    },
    {
      "name": "Bullock Harbour Cliff Jump",
      "region": "Dublin",
      "country": "Ireland",
      "type": "cliff",
      "lat": 53.2866,
      "lng": -6.1077
    },
    {
      "name": "Colliemore Harbour",
      "region": "Dublin",
      "country": "Ireland",
      "type": "platform",
      "lat": 53.275,
      "lng": -6.0932
    },
    {
      "name": "High Rock",
      "region": "Dublin",
      "country": "Ireland",
      "type": "cliff",
      "lat": 53.4416,
      "lng": -6.122
    },
    {
      "name": "Southease swing bridge",
      "region": "Lewes",
      "country": "England",
      "type": "bridge",
      "lat": 50.8301,
      "lng": 0.0262
    },
    {
      "name": "Buckstones Jump",
      "region": "Lake District",
      "country": "England",
      "type": "cliff",
      "lat": 54.4612,
      "lng": -2.9788
    },
    {
      "name": "Banishead Quarry",
      "region": "Lake District",
      "country": "England",
      "type": "cliff",
      "lat": 54.3753,
      "lng": -3.1107
    },
    {
      "name": "Gorran Haven Beach",
      "region": "Gorran Haven",
      "country": "England",
      "type": "cliff",
      "lat": 50.2408,
      "lng": -4.7864
    },
    {
      "name": "Stack Point",
      "region": "Pennance",
      "country": "England",
      "type": "cliff",
      "lat": 50.1349,
      "lng": -5.0737
    },
    {
      "name": "Big Guns Cove",
      "region": "Padstow",
      "country": "England",
      "type": "cliff",
      "lat": 50.5458,
      "lng": -5.0019
    },
    {
      "name": "Port Isaac",
      "region": "Port Isaac",
      "country": "England",
      "type": "cliff",
      "lat": 50.5952,
      "lng": -4.8319
    },
    {
      "name": "Bossiney Cove",
      "region": "Tintagel",
      "country": "England",
      "type": "cliff",
      "lat": 50.6718,
      "lng": -4.7381
    },
    {
      "name": "St Ives Head",
      "region": "St Ives",
      "country": "England",
      "type": "cliff",
      "lat": 50.2186,
      "lng": -5.4757
    },
    {
      "name": "The Blue Pool",
      "region": "Portrush",
      "country": "Northern Ireland",
      "type": "cliff",
      "lat": 55.2086,
      "lng": -6.653
    },
    {
      "name": "Rinsey Head",
      "region": "Cornwall",
      "country": "England",
      "type": "cliff",
      "lat": 50.0891,
      "lng": -5.3623
    },
    {
      "name": "Stackpole Quay",
      "region": "Pembrokeshire",
      "country": "Wales",
      "type": "platform",
      "lat": 51.6256,
      "lng": -4.8998
    },
    {
      "name": "Foggintor Quarry",
      "region": "Dartmoor National Park",
      "country": "England",
      "type": "cliff",
      "lat": 50.5448,
      "lng": -4.0243
    },
    {
      "name": "Highgate Mens Bathing Pond",
      "region": "Hampstead Heath",
      "country": "England",
      "type": "board",
      "lat": 51.5633,
      "lng": -0.1567
    },
    {
      "name": "East Quarry",
      "region": "Wigan",
      "country": "England",
      "type": "cliff",
      "lat": 53.5808,
      "lng": -2.718
    },
    {
      "name": "Cape Greco Beach",
      "region": "Ayia Napa",
      "country": "Cyprus",
      "type": "cliff",
      "lat": 34.9628,
      "lng": 34.0807
    },
    {
      "name": "Ponte della Civera",
      "region": "Como",
      "country": "Italy",
      "type": "bridge",
      "lat": 45.9107,
      "lng": 9.1545
    },
    {
      "name": "Bridge of Love",
      "region": "Ayia Napa",
      "country": "Cyprus",
      "type": "cliff",
      "lat": 34.9825,
      "lng": 34.0165
    },
    {
      "name": "Towan Beach",
      "region": "Newquay",
      "country": "England",
      "type": "cliff",
      "lat": 50.4155,
      "lng": -5.0824
    },
    {
      "name": "Hamar Diving Tower",
      "region": "Hamar",
      "country": "Norway",
      "type": "platform",
      "lat": 60.7929,
      "lng": 11.0599
    },
    {
      "name": "Mahana Point",
      "region": "Bali",
      "country": "Indonesia",
      "type": "platform",
      "lat": -8.7061,
      "lng": 115.4377
    },
    {
      "name": "Salmon Bay",
      "region": "Rottnest",
      "country": "Australia",
      "type": "cliff",
      "lat": -32.0245,
      "lng": 115.5251
    },
    {
      "name": "Eagle Rock",
      "region": "Rottnest",
      "country": "Australia",
      "type": "cliff",
      "lat": -32.0184,
      "lng": 115.4548
    },
    {
      "name": "Zadar Diving Platform",
      "region": "Zadar",
      "country": "Croatia",
      "type": "platform",
      "lat": 44.1076,
      "lng": 15.231
    },
    {
      "name": "Pitogo Cliff",
      "region": "Siquijor",
      "country": "Philippines",
      "type": "cliff",
      "lat": 9.1346,
      "lng": 123.5238,
      "heights": [12]
    },
    {
      "name": "Salagdoong Beach Resort",
      "region": "Siquijor",
      "country": "Philippines",
      "type": "platform",
      "lat": 9.2129,
      "lng": 123.6812
    },
    {
      "name": "Punch Bowl Falls",
      "region": "Oregon",
      "country": "United States",
      "type": "cliff",
      "lat": 45.6217,
      "lng": -121.8945
    },
    {
      "name": "Cala Egos",
      "region": "Mallorca",
      "country": "Spain",
      "type": "cliff",
      "lat": 39.3602,
      "lng": 3.2255
    },
    {
      "name": "Rick's Cafe",
      "region": "Negril",
      "country": "Jamaica",
      "type": "cliff",
      "lat": 18.2543,
      "lng": -78.3632,
      "heights": [2, 3, 8, 11]
    },
    {
      "name": "Pozzone di Iragna",
      "region": "Riviera",
      "country": "Switzerland",
      "type": "cliff",
      "lat": 46.3291,
      "lng": 8.9655
    },
    {
      "name": "Boggera Waterfall",
      "region": "Riviera",
      "country": "Switzerland",
      "type": "cliff",
      "lat": 46.3014,
      "lng": 8.996
    },
    {
      "name": "Pozzone di Osogna",
      "region": "Riviera",
      "country": "Switzerland",
      "type": "cliff",
      "lat": 46.3136,
      "lng": 8.9882
    },
    {
      "name": "Holmes Reservoir",
      "region": "Utah",
      "country": "United States",
      "type": "swing",
      "lat": 41.07175999978111,
      "lng": -111.9147907671101
    },
    {
      "name": "Nay Aug Falls",
      "region": "Scranton",
      "country": "United States",
      "type": "cliff",
      "lat": 41.4017,
      "lng": -75.6396
    },
    {
      "name": "Causse de la Selle",
      "region": "Saint-Martin-de-Londres",
      "country": "France",
      "type": "cliff",
      "lat": 43.8079,
      "lng": 3.6687,
      "heights": [10, 22]
    },
    {
      "name": "Dorset Marble Quarry",
      "region": "Vermont",
      "country": "United States",
      "type": "cliff",
      "lat": 43.2359,
      "lng": -73.0835
    },
    {
      "name": "Carding Mill Valley Tower",
      "region": "Shropshire",
      "country": "England",
      "type": "platform",
      "lat": 52.5462,
      "lng": -2.8327,
      "heights": [6],
      "notes": "Requires jumping a gate"
    },
    {
      "name": "Goliath",
      "region": "California",
      "country": "United States",
      "type": "cliff",
      "lat": 39.3204,
      "lng": -120.6626
    },
    {
      "name": "The Log",
      "region": "Oregon",
      "country": "United States",
      "type": "tree",
      "lat": 43.2634,
      "lng": -122.4339
    },
    {
      "name": "Tongue Pot",
      "region": "Lake District",
      "country": "England",
      "type": "cliff",
      "lat": 54.4106,
      "lng": -3.2075,
      "tags": ["tree"]
    },
    {
      "name": "Ginnie Springs",
      "region": "Florida",
      "country": "United States",
      "type": "tree",
      "lat": 29.8361,
      "lng": -82.6999,
      "tags": ["swing"]
    },
    {
      "name": "Weeki Wachee River",
      "region": "Florida",
      "country": "United States",
      "type": "tree",
      "lat": 28.5306,
      "lng": -82.6232,
      "tags": ["swing"]
    },
    {
      "name": "Durdle Door",
      "region": "Dorset",
      "country": "England",
      "type": "cliff",
      "lat": 50.6212, 
      "lng": -2.2771,
      "notes": "Heights may vary with tide"
    },
    {
      "name": "Playa Chica",
      "region": "Lanzarote",
      "country": "Spain",
      "type": "platform",
      "lat": 28.9191,
      "lng": -13.6690,
      "notes": "A concrete platform a couple metres high. In the morning it will be swarming with SCUBA divers. There is a concrete staircase for easy escape from the water."
    },
    {
      "name": "Moel Siabod",
      "region": "Capel Curig",
      "country":"Wales",
      "type": "cliff",
      "lat": 53.0816,
      "lng": -3.9163,
      "notes": "Quarry"
    },
    {
      "name": "Nikki's Leap - Vivian Quarry",
      "region": "Llanberis",
      "country": "Wales",
      "type": "cliff",
      "lat": 53.1227,
      "lng": -4.1141,
      "heights": [24]
    },
    {
      "name": "Waimea Bay Rock Jump",
      "region": "Oahu",
      "country": "United States",
      "type": "cliff",
      "lat": 21.638752956325828,
      "lng": -158.06531701777544,
      "heights": [5]
    },
    {
      "name": "Spitting Cave",
      "region": "Oahu",
      "country": "United States",
      "type": "cliff",
      "lat": 21.259516248874533,
      "lng": -157.70767639431233,
      "heights": [21]
    },
    {
      "name": "Laie Point",
      "region": "Oahu",
      "country": "United States",
      "type": "cliff",
      "lat": 21.648595374675555,
      "lng": -157.9143661248198,
      "heights": [9]
    },
    {
      "name": "Alan Davis Beach",
      "region": "Oahu",
      "country": "United States",
      "type": "board",
      "lat": 21.298445491062676,
      "lng": -157.6549513245402,
      "tags": ["cliff"]
    },
    {
      "name": "Maunawili Falls",
      "region": "Oahu",
      "country": "United States",
      "type": "cliff",
      "lat": 21.34896078710055,
      "lng": -157.77223415262148,
      "heights": [9]
    },
    {
      "name": "Kapena Falls",
      "region": "Oahu",
      "country": "United States",
      "type": "cliff",
      "lat": 21.32535440698403,
      "lng": -157.84590912801448,
      "heights": [12]
    },
    {
      "name": "Waimea Falls",
      "region": "Oahu",
      "country": "United States",
      "type": "cliff",
      "lat": 21.631465162108185,
      "lng": -158.04350636515912
    },
    {
      "name": "China Walls",
      "region": "Oahu",
      "country": "United States",
      "type": "cliff",
      "lat": 21.26152526579785,
      "lng": -157.7113191644974,
      "heights": [4]
    },
    {
      "name": "Waimano Falls",
      "region": "Oahu",
      "country": "United States",
      "type": "cliff",
      "lat": 21.43309958547132,
      "lng": -157.92162854158286,
      "heights": [4],
      "tags": ["swing"]
    },
    {
      "name": "Havasu Falls",
      "region": "Arizona",
      "country": "United States",
      "type": "cliff",
      "lat": 36.25525433003605,
      "lng": -112.69794323668502,
      "heights": [38]
    },
    {
      "name": "Possum Kingdom Lake",
      "region": "Texas",
      "country": "United States",
      "type": "cliff",
      "lat": 32.876677916176895,
      "lng": -98.48853787849986,
      "heights": [6]
    },
    {
      "name": "South Point Cliff Dive",
      "region": "Hawaii",
      "country": "United States",
      "type": "cliff",
      "lat": 18.915018613057704,
      "lng": -155.68297367027125,
      "heights": [12]
    },
    {
      "name": "Red Rocks Park",
      "region": "Vermont",
      "country": "United States",
      "type": "cliff",
      "lat": 44.44251737146058,
      "lng": -73.22250051927617
    },
    {
      "name": "Cenote Ik Kil",
      "region": "Yucatán",
      "country": "Mexico",
      "type": "platform",
      "lat": 20.66111609484736,
      "lng": -88.55049574874096,
      "heights": [3, 5],
      "notes": "Lifevests are required"
    },
    {
      "name": "Cerro Tzankujil",
      "region": "Lake Atitlán",
      "country": "Guatemala",
      "type": "platform",
      "lat": 14.720592987030082,
      "lng": -91.2608035646762,
      "heights": [6, 12]
    },
    {
      "name": "Buza Bar",
      "region": "Dubrovnik",
      "country": "Croatia",
      "type": "cliff",
      "lat": 42.63907065464684,
      "lng": 18.108710853664462,
      "heights": [4, 9, 20]
    },
    {
      "name": "Polignano a Mare",
      "region": "Puglia",
      "country": "Italy",
      "type": "cliff",
      "lat": 40.99710323528295,
      "lng": 17.21783827944616
    },
    {
      "name": "Ponte Brolla",
      "region": "Maggia",
      "country": "Switzerland",
      "type": "cliff",
      "lat": 46.18718816958176,
      "lng": 8.756127928788429
    },
    {
      "name": "Brontallo",
      "region": "Brontallo",
      "country": "Switzerland",
      "type": "cliff",
      "lat": 46.354621723862486,
      "lng": 8.62838907704497
    },
    {
      "name": "Ariel's Point",
      "region": "Boracay",
      "country": "Philippines",
      "type": "board",
      "lat": 11.864992105262283,
      "lng": 121.87749924662737,
      "heights": [5, 8, 15]
    },
    {
      "name": "Arbroath Cliffs",
      "region": "Angus",
      "country": "Scotland",
      "type": "cliff",
      "lat": 56.5611,
      "lng": -2.5571
    },
    {
      "name": "McHood Park",
      "region": "Arizona",
      "country": "United States",
      "type": "cliff",
      "lat": 34.9509,
      "lng":  -110.6539
    },
    {
      "name": "River Cetina",
      "region": "Kučiće",
      "country": "Croatia",
      "type": "cliff",
      "lat": 43.4362,
      "lng": 16.7772
    },
    {
      "name": "Cetina River Canyon",
      "region": "Zadvarje",
      "country": "Croatia",
      "type": "cliff",
      "lat": 43.4355,
      "lng": 16.8923,
      "notes": "Might need to rappel in"
    },
    {
      "name": "HIGHJUMP",
      "region": "Hřiměždice",
      "country": "Czechia",
      "type": "cliff",
      "lat": 49.6903,
      "lng": 14.2802
    },
    {
      "name": "Fawn's Leap",
      "region": "New York",
      "country": "United States",
      "type": "cliff",
      "lat": 42.177326502863515,
      "lng": -74.05730092660836
    },
    {
      "name": "Red River Jump Rock",
      "region": "Kentucky",
      "country": "United States",
      "type": "cliff",
      "lat": 37.82392981925722,
      "lng": -83.62567413994805
    },
    {
      "name": "Jocassee Jumping Rock",
      "region": "South Carolina",
      "country": "United States",
      "type": "cliff",
      "lat": 35.034533075361736,
      "lng": -82.92605587627348,
      "heights": [5]
    },
    {
      "name": "Paradise Cove / Guffey Gorge",
      "region": "Colorado",
      "country": "United States",
      "type": "cliff",
      "lat": 38.771662751035606,
      "lng": -105.33322000421984
    },
    {
      "name": "Devil's Glen Falls",
      "region": "Connecticut",
      "country": "United States",
      "type": "cliff",
      "lat": 41.24274820384066,
      "lng": -73.346869825771
    },
    {
      "name": "Black Rocks",
      "region": "Michigan",
      "country": "United States",
      "type": "cliff",
      "lat": 46.59272251053086,
      "lng": -87.38078951022041
    },
    {
      "name": "Cliff on C&O",
      "region": "Maryland",
      "country": "United States",
      "type": "platform",
      "lat": 39.612223224286986,
      "lng": -77.92557649699303
    },
    {
      "name": "Calves Pen",
      "region": "New York",
      "country": "United States",
      "type": "cliff",
      "lat": 43.53466390555995,
      "lng": -73.61791594282502
    },
    {
      "name": "Wildwood Falls",
      "region": "Oregon",
      "country": "United States",
      "type": "cliff",
      "lat": 43.69986177741289,
      "lng": -122.81895012620086
    },
    {
      "name": "The Rock at Lake Whitney",
      "region": "Texas",
      "country": "United States",
      "type": "cliff",
      "lat": 31.90694599443979,
      "lng": -97.40993329397463
    },
    {
      "name": "Mavericks Cliff",
      "region": "South Dakota",
      "country": "United States",
      "type": "cliff",
      "lat": 43.84586466392443,
      "lng": -103.56302577787292
    },
    {
      "name": "Devil's Waterhole",
      "region": "Texas",
      "country": "United States",
      "type": "cliff",
      "lat": 30.748133854626335,
      "lng": -98.35943892241711,
      "heights": [1, 2, 3, 6, 9]
    },
    {
      "name": "Keowee Rock",
      "region": "South Carolina",
      "country": "United States",
      "type": "cliff",
      "lat": 34.90397725573707,
      "lng": -82.90531783245804
    },
    {
      "name": "Jump Rock",
      "region": "Georgia",
      "country": "United States",
      "type": "cliff",
      "lat": 34.55203497306775,
      "lng": -83.1194712433867
    },
  
    {
      "name": "Pou Dels Cavalls (Pou Clar)",
      "region": "Valencia",
      "country": "Spain",
      "type": "cliff",
      "lat": 38.800475846910615,
      "lng": -0.6125877065598815
    },
    {
      "name": "Cliff jump 5m",
      "region": "Kloštar",
      "country": "Croatia",
      "type": "cliff",
      "lat": 45.13524781639681,
      "lng": 13.656688399882995
    },
    {
      "name": "Cliffs of Katarina",
      "region": "Katarina",
      "country": "Croatia",
      "type": "cliff",
      "lat": 45.07755535953229,
      "lng": 13.62542741499467
    },
    {
      "name": "Cave",
      "region": "Premantura",
      "country": "Croatia",
      "type": "cliff",
      "lat": 44.768709048926574,
      "lng": 13.912408621588053
    },
    {
      "name": "Beach Mala Kolumbarica",
      "region": "Premantura",
      "country": "Croatia",
      "type": "cliff",
      "lat": 44.76908091143758,
      "lng": 13.911496495374552
    },
    {
      "name": "Cliffs of Kamenjak",
      "region": "Premantura",
      "country": "Croatia",
      "type": "cliff",
      "lat": 44.76812773829464,
      "lng": 13.91609189389584
    },
    {
      "name": "Island Mana",
      "region": "Kornati",
      "country": "Croatia",
      "type": "cliff",
      "lat": 43.80170146023856,
      "lng": 15.266992200077448
    },
    {
      "name": "Čiovo",
      "region": "Slatine",
      "country": "Croatia",
      "type": "platform",
      "lat": 43.48897610988637,
      "lng": 16.38111113702609
    },
    {
      "name": "Split Jump",
      "region": "Split",
      "country": "Croatia",
      "type": "cliff",
      "lat": 43.5009990032935,
      "lng": 16.424613913325135,
      "heights": [12]
    },
    {
      "name": "Split Jump 2",
      "region": "Split",
      "country": "Croatia",
      "type": "cliff",
      "lat": 43.5024877146496,
      "lng": 16.420946120813266,
      "heights": [5, 10]
    },
    {
      "name": "Kavala Rock Jump",
      "region": "Split",
      "country": "Croatia",
      "type": "cliff",
      "lat": 43.50051559138533,
      "lng": 16.446159975029442
    },
    {
      "name": "Splitska Cliff Jumping",
      "region": "Splitska",
      "country": "Croatia",
      "type": "cliff",
      "lat": 43.3796021159283,
      "lng": 16.599629531713084,
      "heights": [5]
    },
    {
      "name": "Poljica Rocks",
      "region": "Poljica",
      "country": "Croatia",
      "type": "cliff",
      "lat": 43.1578710426982,
      "lng": 16.776405304963202
    },
    {
      "name": "Raznjic",
      "region": "Lumbarda",
      "country": "Croatia",
      "type": "cliff",
      "lat": 42.918062907978566,
      "lng": 17.199191211325516,
      "heights": [7]
    },
    {
      "name": "Majestic, Squamish",
      "region": "British Columbia",
      "country": "Canada",
      "type": "cliff",
      "lat": 49.60302405413449,
      "lng": -123.22063070899162
    },
    {
      "name": "Kornhausbrücke",
      "region": "Zürich",
      "country": "Switzerland",
      "type": "bridge",
      "lat": 47.38622239424899,
      "lng": 8.533932667147063
    },
    {
      "name": "Erlenbach ZH",
      "region": "Erlenbach",
      "country": "Switzerland",
      "type": "roof",
      "lat": 47.30303577586919,
      "lng": 8.589294932469729
    },
    {
      "name": "Barton Creek Pedestrian Bridge",
      "region": "Austin",
      "country": "United States",
      "type": "bridge",
      "lat": 30.265635807619287,
      "lng": -97.76418529722237,
      "tags": ["swing"]
    },
    {
      "name": "Pfluger Pedestrian Bridge",
      "region": "Austin",
      "country": "United States",
      "type": "bridge",
      "lat": 30.265847968611226,
      "lng": -97.7556005708604,
      "tags": ["swing"]
    },
    {
      "name": "Tar Creek: Upper Falls",
      "region": "California",
      "country": "United States",
      "type": "cliff",
      "lat": 34.4944658358348,
      "lng": -118.93666786886597,
      "heights": [21]
    },
    {
      "name": "Tar Creek: Cascades",
      "region": "California",
      "country": "United States",
      "type": "cliff",
      "lat": 34.49258965196124,
      "lng": -118.93326888910399
    },
    {
      "name": "Tar Creek: Bottom Pool",
      "region": "California",
      "country": "United States",
      "type": "cliff",
      "lat": 34.4935683780615,
      "lng": -118.9397790015266
    },
  
    {
      "name": "Toketee Falls",
      "region": "Oregon",
      "country": "United States",
      "type": "cliff",
      "lat": 43.263426848584324,
      "lng": -122.43355877112741,
      "heights": [49]
    },
    {
      "name": "Steelhead Falls",
      "region": "Oregon",
      "country": "United States",
      "type": "cliff",
      "lat": 44.416452970642176,
      "lng": -121.28989179130116
    },
    {
      "name": "Cleetwood Cove Trail",
      "region": "Oregon",
      "country": "United States",
      "type": "cliff",
      "lat": 42.9777948026732,
      "lng": -122.08236180105291,
      "heights": [9]
    },
    {
      "name": "Falls City Falls",
      "region": "Oregon",
      "country": "United States",
      "type": "cliff",
      "lat": 44.86672376802551,
      "lng": -123.43846914183679,
      "heights": [12]
    },
    {
      "name": "Three Pools",
      "region": "Oregon",
      "country": "United States",
      "type": "cliff",
      "lat": 44.83911186922812,
      "lng": -122.31188645443976
    },
    {
      "name": "Cave Hole",
      "region": "Isle of Portland",
      "country": "England",
      "type": "cliff",
      "lat": 50.51968135509353,
      "lng": -2.4446519222183936
    },
    {
      "name": "Octopus Weed",
      "region": "Isle of Portland",
      "country": "England",
      "type": "cliff",
      "lat": 50.52212012998734,
      "lng": -2.442373080345613
    },
    {
      "name": "Blue Lagoon",
      "region": "Mellieħa",
      "country": "Malta",
      "type": "cliff",
      "lat": 35.9978172927282,
      "lng": 14.367702687701554
    },
    {
      "name": "Calanques",
      "region": "Marseille",
      "country": "France",
      "type": "cliff",
      "lat": 43.211682242705855,
      "lng": 5.4550760870529285,
      "heights": [8, 15] 
    },
    {
      "name": "Olympos Beach",
      "region": "Çirali",
      "country": "Turkey",
      "type": "cliff",
      "lat": 36.39545011872819,
      "lng": 30.477630096872968
    },
    {
      "name": "Caleta des Frares",
      "region": "Bonaire",
      "country": "Spain",
      "type": "cliff",
      "lat": 39.86688822876181,
      "lng": 3.14796127699098
    },
    {
      "name": "Sa Barca Trencada",
      "region": "Balearic Islands",
      "country": "Spain",
      "type": "cliff",
      "lat": 39.350323922763884,
      "lng": 3.1894150443622236
    },
    {
      "name": "Cala Llombards",
      "region": "Balearic Islands",
      "country": "Spain",
      "type": "cliff",
      "lat": 39.324240094944166,
      "lng": 3.1403715773287852
    },
    {
      "name": "Es Pontàs",
      "region": "Balearic Islands",
      "country": "Spain",
      "type": "cliff",
      "lat": 39.32566926960599,
      "lng": 3.1446569713413006,
      "tags": ["swing"],
      "notes": "Cliff Masters 2025 Location"
    },
    {
      "name": "Cala Santanyí",
      "region": "Balearic Islands",
      "country": "Spain",
      "type": "cliff",
      "lat": 39.329173671428855,
      "lng": 3.1474512367319516
    },
    {
      "name": "Punta Negra",
      "region": "Balearic Islands",
      "country": "Spain",
      "type": "cliff",
      "lat": 39.52575645728749,
      "lng": 2.5527329880269622
    },
    {
      "name": "Playa Forti Beach",
      "region": "Sabana Westpunt",
      "country": "Curaçao",
      "type": "cliff",
      "lat": 12.366144753825619,
      "lng": -69.15414857976286,
      "heights": [12]
    },
    {
      "name": "Little Thailand",
      "region": "Queenstown",
      "country": "New Zealand",
      "type": "cliff",
      "lat": -45.053105647817276,
      "lng": 168.61918307861444
    },
    {
      "name": "Cala Tarida Rock",
      "region": "Ibiza",
      "country": "Spain",
      "type": "cliff",
      "lat": 38.94101386028953,
      "lng": 1.2338505047608532
    },
    {
      "name": "Cala Bassa",
      "region": "Ibiza",
      "country": "Spain",
      "type": "cliff",
      "lat": 38.96753344170586,
      "lng": 1.241597469988978
    },
    {
      "name": "Pulpit Rock",
      "region": "Isle of Portland",
      "country": "England",
      "type": "cliff",
      "lat": 50.51425387923482,
      "lng": -2.459459391771122
    },
    {
      "name": "Portland Bill",
      "region": "Isle of Portland",
      "country": "England",
      "type": "cliff",
      "lat": 50.515680020000765,
      "lng": -2.4592444183453264
    },
    {
      "name": "Rhys & Peache's Cliff",
      "region": "Isle of Portland",
      "country": "England",
      "type": "cliff",
      "lat": 50.515267910177414,
      "lng": -2.4532531326547717,
      "notes": "A collections of small/medium rocky cliffs on the East side of the tip of Portland. There are a bunch of jumpable spots that should all be depth checked first. There's lots of seaweed underwater so it looks slightly grim, but it's fine to jump into."
    },
    {
      "name": "Sarakiniko",
      "region": "Milos",
      "country": "Greece",
      "type": "cliff",
      "lat": 36.744014088363684,
      "lng": 24.458082171744287
    },
    {
      "name": "Paralia Vitali",
      "region": "Idrousa",
      "country": "Greece",
      "type": "cliff",
      "lat": 37.938632698272045,
      "lng": 24.82670215785458
    },
    {
      "name": "Kamari Beach",
      "region": "Kamari",
      "country": "Greece",
      "type": "cliff",
      "lat": 36.36921831885616,
      "lng": 25.48109851495233,
      "heights": [5, 10]
    },
    {
      "name": "Σημείο Κατάδυσης Ποταμίτης",
      "region": "Zakynthos",
      "country": "Greece",
      "type": "board",
      "lat": 37.928913647779545,
      "lng": 20.70519397449624,
      "heights": [5, 7]
    },
    {
      "name": "Caldera Beach",
      "region": "Santorini",
      "country": "Greece",
      "type": "cliff",
      "lat": 36.3613253153751,
      "lng": 25.405094779655098,
      "heights": [4]
    },
    {
      "name": "Natural Pool",
      "region": "Koufonisia",
      "country": "Greece",
      "type": "cliff",
      "lat": 36.939655728772884,
      "lng": 25.62456048144798
    },
    {
      "name": "Aponkrimnos",
      "region": "Naxos and Lesser Cyclades",
      "country": "Greece",
      "type": "cliff",
      "lat": 36.94968244902375,
      "lng": 25.425703719296123
    },
    {
      "name": "Ksylompatis Caves",
      "region": "Koufonisia",
      "country": "Greece",
      "type": "cliff",
      "lat": 36.948074534564576,
      "lng": 25.621118715325583
    },
    {
      "name": "Παραλία Κάπρος",
      "region": "Milos",
      "country": "Greece",
      "type": "cliff",
      "lat": 36.75307226691029,
      "lng": 24.501575925404016
    },
    {
      "name": "Cala di Grotta Monaca",
      "region": "Otranto",
      "country": "Italy",
      "type": "cliff",
      "lat": 40.1626464192042,
      "lng": 18.484257247936423
    },
    {
      "name": "Grotta del Fiume",
      "region": "Marina di Leuca",
      "country": "Italy",
      "type": "cliff",
      "lat": 39.795373266143734,
      "lng": 18.339687543711367
    },
    {
      "name": "Porto Limnionas Beach",
      "region": "Artemisia",
      "country": "Greece",
      "type": "cliff",
      "lat": 37.74011400155832,
      "lng": 20.701262843181528
    },
    {
      "name": "Porto Roxa Beach",
      "region": "Zakinthos",
      "country": "Greece",
      "type": "board",
      "lat": 37.72851538127436,
      "lng": 20.71027047161399,
      "heights": [5]
    },
    {
      "name": "Rock Arch",
      "region": "Artemisia",
      "country": "Greece",
      "type": "cliff",
      "lat": 37.71702134623905,
      "lng": 20.729923611864105,
      "heights": [13, 20]
    },
    {
      "name": "Tripiti Cave",
      "region": "Thasos",
      "country": "Greece",
      "type": "cliff",
      "lat": 40.62249450435431,
      "lng": 24.539532423203802
    },
    {
      "name": "Giola Doğal Havuz",
      "region": "Thasos",
      "country": "Greece",
      "type": "cliff",
      "lat": 40.586348426044545,
      "lng": 24.67861727678644
    },
    {
      "name": "Aquarium Beach",
      "region": "Jala",
      "country": "Albania",
      "type": "cliff",
      "lat": 40.113023294885764,
      "lng": 19.71198386261423
    },
    {
      "name": "Polylimnio Waterfalls",
      "region": "Voufrada",
      "country": "Greece",
      "type": "cliff",
      "lat": 36.983714604471764,
      "lng": 21.85396253568056
    },
    {
      "name": "Causey Reservoir",
      "region": "Utah",
      "country": "United States",
      "type": "cliff",
      "lat": 41.2975348762761,
      "lng": -111.58320143975862
    },
    {
      "name": "Smith and Morehouse Reservoir",
      "region": "Utah",
      "country": "United States",
      "type": "swing",
      "lat": 40.75439183412706,
      "lng": -111.09905335592842,
      "tags": ["cliff"],
      "notes": "Not exact location, rope swing on east side of reservoir. Swing also possibly cut down."
    },
    {
      "name": "Cenote X'Canche",
      "region": "Yucatan",
      "country": "Mexico",
      "type": "swing",
      "lat": 20.888282522364864,
      "lng": -88.12044612352042,
      "tags": ["platform"]
    },
    {
      "name": "Cenote San Lorenzo Oxman",
      "region": "Yucatan",
      "country": "Mexico",
      "type": "swing",
      "lat": 20.66759530490653,
      "lng": -88.23013714297647,
      "heights": [4]
    },
    {
      "name": "Cenote Noh-Mozon",
      "region": "Yucatan",
      "country": "Mexico",
      "type": "platform",
      "lat": 20.623275040369972,
      "lng": -89.38406965120572,
      "heights": [9],
      "notes": "Possible rope swing too"
    },
    {
      "name": "Sand Hollow Reservoir Rock",
      "region": "Utah",
      "country": "United States",
      "type": "cliff",
      "lat": 37.124979181052595,
      "lng": -113.37841135003994,
      "heights": [5, 8]
    },
    {
      "name": "Pythonbrug Bridge",
      "region": "Amsterdam",
      "country": "Netherlands",
      "type": "bridge",
      "lat": 52.37304539775652,
      "lng": 4.948873372213221,
      "tags": ["swing"]
    },
    {
      "name": "Random Bridge",
      "region": "Amsterdam",
      "country": "Netherlands",
      "type": "bridge",
      "lat": 52.3516772009648,
      "lng": 4.8454610516751675
    },
    {
      "name": "Het Stenen Hoofd",
      "region": "Amsterdam",
      "country": "Netherlands",
      "type": "platform",
      "lat": 52.389567747067275,
      "lng": 4.892409475024006
    },
    {
      "name": "Pine Meadow Lake",
      "region": "New York",
      "country": "United States",
      "type": "cliff",
      "lat": 41.176875612857565,
      "lng": -74.12965636665388,
      "notes": "Possible other spots around the lake"
    },
    {
      "name": "Hinksey Lake Bridge",
      "region": "Oxford",
      "country": "England",
      "type": "bridge",
      "lat": 51.73801647307764,
      "lng": -1.2574030429928955
    },
    {
      "name": "Coconut Island Tower",
      "region": "Hawaii",
      "country": "United States",
      "type": "platform",
      "lat": 19.730301776879628,
      "lng": -155.06822321703407
    },
    {
      "name": "Zeagle's Rock",
      "region": "North Carolina",
      "country": "United States",
      "type": "cliff",
      "lat": 36.00002028308675,
      "lng": -78.64434332954605
    },
    {
      "name": "Angora Lakes",
      "region": "California",
      "country": "United States",
      "type": "cliff",
      "lat": 38.862441271513234,
      "lng": -120.06922102556642,
      "heights": [19]
    },
    {
      "name": "Sand Harbour",
      "region": "Nevada",
      "country": "United States",
      "type": "cliff",
      "lat": 39.20155638911432,
      "lng": -119.93134043904251
    },
    {
      "name": "Bonsai Rock",
      "region": "Nevada",
      "country": "United States",
      "type": "cliff",
      "lat": 39.18377098502071,
      "lng": -119.92774928156702
    },
    {
      "name": "Mazet Plage",
      "region": "Berrias-et-Casteljau",
      "country": "France",
      "type": "cliff",
      "lat": 44.39489237604277,
      "lng": 4.197653372395629
    },
    {
      "name": "D. L. Bliss State Park",
      "region": "California",
      "country": "United States",
      "type": "cliff",
      "lat": 38.972693118774465,
      "lng": -120.09237043057232,
      "heights": [12],
      "notes": "Not exact location, exploring required"
    },
    {
      "name": "Chimney Beach",
      "region": "California",
      "country": "United States",
      "type": "cliff",
      "lat": 39.16548353638598,
      "lng": -119.93361854868789,
      "heights": [6]
    },
    {
      "name": "Joe Lake",
      "region": "Ontario",
      "country": "Canada",
      "type": "cliff",
      "lat": 45.584347938637215,
      "lng": -78.71912067499443,
      "heights": [6],
      "notes": "Not exact location, exploring of the west side of the island is needed"
    },
    {
      "name": "Whitefish Lake Bridge",
      "region": "Ontario",
      "country": "Canada",
      "type": "bridge",
      "lat": 45.529117717153554,
      "lng": -78.41657736912823,
      "notes": "Needs checking"
    },
    {
      "name": "Paradise Falls",
      "region": "North Carolina",
      "country": "United States",
      "type": "cliff",
      "lat": 35.22456139485495,
      "lng": -83.00550224677443
    },
    {
      "name": "Sa Punta",
      "region": "Ibiza",
      "country": "Spain",
      "type": "cliff",
      "lat": 38.91352848219009,
      "lng": 1.4644663494788552
    },
    {
      "name": "Aquarium Cap Blanc",
      "region": "Ibiza",
      "country": "Spain",
      "type": "cliff",
      "lat": 38.98936967720688,
      "lng": 1.2887875138819223
    },
    {
      "name": "Spilia",
      "region": "Mykonos",
      "country": "Greece",
      "type": "cliff",
      "lat": 37.43392395262077,
      "lng": 25.418852812843983,
      "heights": [1, 2.5, 4, 5]
    },
    {
      "name": "Spilia Rocks",
      "region": "Mykonos",
      "country": "Greece",
      "type": "cliff",
      "lat": 37.432362740668616,
      "lng": 25.41905285146205,
      "heights": [10, 12]
    },
    {
      "name": "Bloomington Lake",
      "region": "Idaho",
      "country": "United States",
      "type": "swing",
      "lat": 42.145400723764276,
      "lng": -111.57650706866826
    },
    {
      "name": "Rocky Ledge",
      "region": "Idaho",
      "country": "United States",
      "type": "cliff",
      "lat": 43.06011556572167,
      "lng": -114.10017050791632,
      "tags": ["board"]
    },
    {
      "name": "Primosten",
      "region": "Primosten Jumping Rock",
      "country": "Croatia",
      "type": "cliff",
      "lat": 43.584445811617336, 
      "lng": 15.91895215402584,
      "notes": "Popular and potentialy best spot to learn"
    },
    {
      "name": "Dračevac Beach",
      "region": "Trpanj",
      "country": "Croatia",
      "type": "cliff",
      "lat": 43.009366862719226, 
      "lng": 17.275835730639148
    },
    {
      "name": "Blue Cave",
      "region": "Dubrovnik",
      "country": "Croatia",
      "type": "cliff",
      "lat": 42.665205867412325, 
      "lng": 18.016650188485528
    },
    {
      "name": "Lokrum Rocks",
      "region": "Dubrovnik",
      "country": "Croatia",
      "type": "cliff",
      "lat": 42.62261880026275, 
      "lng": 18.119338437399126
    },
    {
      "name": "Vermont Quarry",
      "region": "Vermont",
      "country": "United States",
      "type": "cliff",
      "lat": 44.15660624245584,
      "lng": -72.47773673899125,
      "heights": [34],
      "notes": "One of the world's most iconic cliff jumping spots"
    },
    {
      "name": "Woodbury Quarry",
      "region": "Vermont",
      "country": "United States",
      "type": "cliff",
      "lat": 44.44137496739633,
      "lng": -72.38495135461939,
      "notes": "Spot not confirmed"
    },
  
    {
      "name": "Castello Scaligero di Malcesine",
      "region": "Verona",
      "country": "Italy",
      "type": "cliff",
      "lat": 45.766125880722676,
      "lng": 10.808301562235501,
      "heights": [1,2,5,7,8,10]
    },
    {
      "name": "Saut du Doubs",
      "region": "Les Brenets",
      "country": "Switzerland",
      "type": "cliff",
      "lat": 47.08721156332335,
      "lng": 6.714111592669284
    },
    {
      "name": "Zarautz",
      "region": "Gipuzkoa",
      "country": "Spain",
      "type": "platform",
      "lat": 43.29049110057971,
      "lng": -2.1789689940465675,
      "tags": ["board"]
    },
    {
      "name": "Manarola Overlook",
      "region": "Manarola",
      "country": "Italy",
      "type": "cliff",
      "lat": 44.10767697825244,
      "lng": 9.725680265085465
    },
    {
      "name": "Submarine Shelter",
      "region": "Rogačić",
      "country": "Croatia",
      "type": "platform",
      "lat": 43.079125451154326,
      "lng": 16.181413507683377,
      "heights": [17]
    },
    {
      "name": "Submarine Shelter",
      "region": "Dragove",
      "country": "Croatia",
      "type": "platform",
      "lat": 44.11975703966964,
      "lng": 14.928839052270805,
      "heights": [11, 15]
    },
    {
      "name": "Bunker",
      "region": "Pula",
      "country": "Croatia",
      "type": "platform",
      "lat": 44.89013613862699,
      "lng": 13.797217123291087,
      "heights": [1,9],
      "tags": ["cliff","swing"]
    },
    {
      "name": "Submarine Shelter",
      "region": "Brijesta",
      "country": "Croatia",
      "type": "platform",
      "lat": 42.90920156885069,
      "lng": 17.529721727868417,
      "notes": "Spot not confirmed"
    },
    {
      "name": "Brijesta Rope Swing",
      "region": "Brijesta",
      "country": "Croatia",
      "type": "swing",
      "lat": 42.90893791216656,
      "lng": 17.529426087203547
    },
    {
      "name": "Submarine Shelter 2",
      "region": "Dragove",
      "country": "Croatia",
      "type": "platform",
      "lat": 44.110258910197494,
      "lng": 14.939681928369927,
      "heights": [15]
    },
    {
      "name": "Bow Lagoon Bridge",
      "region": "Alberta",
      "country": "Canada",
      "type": "bridge",
      "lat": 51.09940007749779,
      "lng": -114.2035914423048,
      "notes": "Shallow landing"
    },
    {
      "name": "Horseshoe Lake",
      "region": "Jasper",
      "country": "Canada",
      "type": "cliff",
      "lat": 52.69819057809584,
      "lng": -117.86492805846535
    },
    {
      "name": "Castle Falls",
      "region": "Alberta",
      "country": "Canada",
      "type": "cliff",
      "lat": 49.44437412614861,
      "lng": -114.32187427256326
    },
    {
      "name": "Seebe Cliffs",
      "region": "Alberta",
      "country": "Canada",
      "type": "cliff",
      "lat": 51.1076856531426,
      "lng": -115.04640908354604,
      "notes": "Very dangerous current, and not confirmed spot"
    },
    {
      "name": "Peace Bridge",
      "region": "Alberta",
      "country": "Canada",
      "type": "bridge",
      "lat": 51.05393007650692,
      "lng": -114.07886558085562
    },
    {
      "name": "Bayonne River Gap",
      "region": "Bayonne",
      "country": "France",
      "type": "roof",
      "lat": 43.4903277047442,
      "lng": -1.474043668060889,
      "notes": "Gappy"
    },
    {
      "name": "Monument au Général de Gaulle",
      "region": "Biarritz",
      "country": "France",
      "type": "platform",
      "lat": 43.48318814669003,
      "lng": -1.568659401229834,
      "notes": "Gappy"
    },
    {
      "name": "Pont d'Hossegor",
      "region": "Soorts-Hossegor",
      "country": "France",
      "type": "bridge",
      "lat": 43.660755627400555,
      "lng": -1.4320643941735793
    },
    {
      "name": "Paradise Valley",
      "region": "Agadir",
      "country": "Morocco",
      "type": "cliff",
      "lat": 30.587764055328854,
      "lng": -9.5281763489436
    },
    {
      "name": "Glenwood Canyon",
      "region": "Colorado",
      "country": "United States",
      "type": "cliff",
      "lat": 39.59233799624116,
      "lng": -107.17829730267493
    },
    {
      "name": "Cala Mosques",
      "region": "Llucmajor",
      "country": "Spain",
      "type": "cliff",
      "lat": 39.486992932093,
      "lng": 2.736774918976571
    },
    {
      "name": "Son Veri",
      "region": "Llucmajor",
      "country": "Spain",
      "type": "cliff",
      "lat": 39.49517031139127,
      "lng": 2.7435787628528976
    },
    {
      "name": "Green River Gorge",
      "region": "Washington",
      "country": "United States",
      "type": "cliff",
      "lat": 47.28832092280302,
      "lng": -121.96702756890858
    },
    {
      "name": "Ikei Ohashi",
      "region": "Okinawa",
      "country": "Japan",
      "type": "bridge",
      "lat": 26.38545333085291,
      "lng": 127.98844412785665
    },
    {
      "name": "Most Kanal",
      "region": "Kanal",
      "country": "Slovenia",
      "type": "bridge",
      "lat": 46.08559451545927,
      "lng": 13.632804023877812
    },
    {
      "name": "Jenkinsburg Bridge",
      "region": "West Virginia",
      "country": "United States",
      "type": "bridge",
      "lat": 39.594808648814045,
      "lng": -79.74827027655131
    },
    {
      "name": "Napoleon Bridge",
      "region": "Kobarid",
      "country": "Slovenia",
      "type": "bridge",
      "lat": 46.248366299469964,
      "lng": 13.58614849834227
    },
    {
      "name": "Balangan Beach Cliff",
      "region": "Bali",
      "country": "Indonesia",
      "type": "cliff",
      "lat": -8.789813702872356,
      "lng": 115.1250134418445,
      "heights": [5,18]
    },
    {
      "name": "Orrido di Santa Anna",
      "region": "Cannobio",
      "country": "Italy",
      "type": "cliff",
      "lat": 46.06105526399503,
      "lng": 8.668505921634319
    },
    {
      "name": "Cascade Blue Hole",
      "region": "Lodge",
      "country": "Jamaica",
      "type": "platform",
      "lat": 18.373200639902098,
      "lng": -77.05108154746232
    },
    {
      "name": "Wadi El Weshwash",
      "region": "South Sinai Governorate",
      "country": "Egypt",
      "type": "cliff",
      "lat": 29.16326190710898,
      "lng": 34.64468954112677
    },
    {
      "name": "Riserva Naturale Cavagrande del Cassibile",
      "region": "Syracuse",
      "country": "Italy",
      "type": "cliff",
      "lat": 36.972583757613954,
      "lng": 15.096335014422504
    },
    {
      "name": "Spiaggia Diana nel Forte",
      "region": "Syracuse",
      "country": "Italy",
      "type": "cliff",
      "lat": 37.059302438369315,
      "lng": 15.298839945579058
    },
    {
      "name": "Piscina naturale di Tinnari",
      "region": "Sassari",
      "country": "Italy",
      "type": "cliff",
      "lat": 41.038618171401744,
      "lng": 8.92117504653769
    },
    {
      "name": "Catho Jetty",
      "region": "Sydney",
      "country": "Australia",
      "type": "bridge",
      "lat": -33.15936686401219,
      "lng": 151.6316324878969,
      "tags": ["swing"]
    },
    {
      "name": "Tamolitch Falls",
      "region": "Oregon",
      "country": "United States",
      "type": "cliff",
      "lat": 44.31218316873329,
      "lng": -122.027038094568,
      "heights": [12]
    },
    {
      "name": "Blue Hole",
      "region": "New Mexico",
      "country": "United States",
      "type": "platform",
      "lat": 34.94059624449355,
      "lng": -104.67321470136346,
      "heights": [6]
    },
    {
      "name": "Orrido di Ponte Brolla",
      "region": "Maggia",
      "country": "Switzerland",
      "type": "cliff",
      "lat": 46.187850064172466,
      "lng": 8.755752682806309
    },
    {
      "name": "Abiqua Falls",
      "region": "Oregon",
      "country": "United States",
      "type": "cliff",
      "lat": 44.92664022463189,
      "lng": -122.56663407398881,
      "heights": [31]
    },
    {
      "name": "Snapper Point",
      "region": "NSW",
      "country": "Australia",
      "type": "cliff",
      "lat": -33.187420013710415,
      "lng": 151.62811294724304
    },
    {
      "name": "Walter Kayaks",
      "region": "San Pedro La Laguna",
      "country": "Guatemala",
      "type": "roof",
      "lat": 14.694185092017714,
      "lng": -91.2743819020084
    },
    {
      "name": "Baybrook Bridge",
      "region": "Idaho",
      "country": "United States",
      "type": "bridge",
      "lat": 43.5982833775698,
      "lng": -116.17588492186185
    },
    {
      "name": "Pack River Bridge",
      "region": "Idaho",
      "country": "United States",
      "type": "bridge",
      "lat": 48.37123775826183,
      "lng": -116.4398409745587
    },
    {
      "name": "Old Bridge Tollymore Forest Park",
      "region": "Newcastle",
      "country": "Northern Ireland",
      "type": "bridge",
      "lat": 54.22194735716866,
      "lng": -5.937918221990088,
      "heights": [8]
    },
    {
      "name": "Newwy Sea Caves",
      "region": "NSW",
      "country": "Australia",
      "type": "cliff",
      "lat": -33.11477619890664,
      "lng": 151.64645557325574
    },
    {
      "name": "Blue Pools, Haast Pass",
      "region": "Otago Region",
      "country": "New Zealand",
      "type": "bridge",
      "lat": -44.16226740492614,
      "lng": 169.26967752478123
    },
    {
      "name": "Little Thailand",
      "region": "Ben Lomond",
      "country": "New Zealand",
      "type": "cliff",
      "lat": -45.053096778064976,
      "lng": 168.6191541831928,
      "heights": [4, 7]
    },
    {
      "name": "Princess Rock",
      "region": "Blendhu Bay",
      "country": "New Zealand",
      "type": "cliff",
      "lat": -44.65220961163651,
      "lng": 168.98973738882546
    },
    {
      "name": "Karapiro Dam",
      "region": "Maungatautari",
      "country": "New Zealand",
      "type": "platform",
      "lat": -37.92486547731755,
      "lng": 175.53961404570083,
      "heights": [35]
    },
    {
      "name": "Gardners Falls",
      "region": "Queensland",
      "country": "Australia",
      "type": "cliff",
      "lat": -26.75933947406631,
      "lng": 152.8707856810827,
      "tags": ["swing" , "tree"]
    },
    {
      "name": "Cedar Creek Swimming Holes",
      "region": "Queensland",
      "country": "Australia",
      "type": "cliff",
      "lat": -27.323196189875578,
      "lng": 152.77959649017237
    },
    {
      "name": "Kondalilla National Park",
      "region": "Queensland",
      "country": "Australia",
      "type": "cliff",
      "lat": -26.671016471698504,
      "lng": 152.87152086878592
    },
    {
      "name": "Bunya Crossing Reserve",
      "region": "Queensland",
      "country": "Australia",
      "type": "swing",
      "lat": -27.355680942987597,
      "lng": 152.9477077189506
    },
    {
      "name": "Daisy Hill Old Quarry",
      "region": "Queensland",
      "country": "Australia",
      "type": "cliff",
      "lat": -27.621042180555833,
      "lng": 153.17613420663446
    },
    {
      "name": "Bongaree Jetty",
      "region": "Queensland",
      "country": "Australia",
      "type": "platform",
      "lat": -27.08393304049235,
      "lng": 153.15815726742898
    },
    {
      "name": "Straddie Gorge",
      "region": "Queensland",
      "country": "Australia",
      "type": "cliff",
      "lat": -27.43619048285463,
      "lng": 153.54574055461666
    },
    {
      "name": "Karawatha Quarry",
      "region": "Queensland",
      "country": "Australia",
      "type": "cliff",
      "lat": -27.629304941168083,
      "lng": 153.07014720471486
    },
    {
      "name": "Gold Creek Reserve",
      "region": "Queensland",
      "country": "Australia",
      "type": "platform",
      "lat": -27.460461140387146,
      "lng": 152.8820541206792,
      "notes": "Jump off valve tower"
    },
    {
      "name": "The Cove",
      "region": "Washington",
      "country": "United States",
      "type": "cliff",
      "lat": 47.841818013883945,
      "lng": -117.72205399328422,
      "heights": [2, 18]
    },
    {
      "name": "Bascule Bridge",
      "region": "London",
      "country": "England",
      "type": "bridge",
      "lat": 51.50812412431973,
      "lng": -0.05065936204528917
    },
    {
      "name": "Walton Lane Bridge",
      "region": "Shepperton",
      "country": "England",
      "type": "bridge",
      "lat": 51.382567041283515,
      "lng": -0.4500807202279787
    },
    {
      "name": "Shiplake Bridge",
      "region": "Reading",
      "country": "England",
      "type": "bridge",
      "lat": 51.50205667917421,
      "lng": -0.8779941352259247
    },
    {
      "name": "Thameside Walk Bridge",
      "region": "Reading",
      "country": "England",
      "type": "bridge",
      "lat": 51.476241884385026,
      "lng": -0.9142410898869049
    },
    {
      "name": "Sonning Bridge",
      "region": "Reading",
      "country": "England",
      "type": "bridge",
      "lat": 51.47571218160657,
      "lng": -0.9138353437969379
    },
    {
      "name": "Whitchurch Bridge",
      "region": "Reading",
      "country": "England",
      "type": "bridge",
      "lat": 51.48694879712563,
      "lng": -1.085179570020085
    },
    {
      "name": "Magdalen Bridge",
      "region": "Oxford",
      "country": "England",
      "type": "bridge",
      "lat": 51.75119848260008,
      "lng": -1.2462039783806167,
      "notes": "Depth check, lots of broken bones."
    },
    {
      "name": "Breakwater Beach",
      "region": "Brixham",
      "country": "England",
      "type": "cliff",
      "lat": 50.400173120969086,
      "lng": -3.503359561063762
    },
    {
      "name": "Spitchwick",
      "region": "Newton Abbot",
      "country": "England",
      "type": "cliff",
      "lat": 50.52554586951126,
      "lng": -3.814025072031094
    },
    {
      "name": "Merrivale Quarry",
      "region": "Princetown",
      "country": "England",
      "type": "cliff",
      "lat": 50.55929119053455,
      "lng": -4.054060496693353,
      "heights": [16, 29]
    },
    {
      "name": "Meldon Pool",
      "region": "Okehampton",
      "country": "England",
      "type": "cliff",
      "lat": 50.71089208090302,
      "lng": -4.036120932021012,
      "heights": [10]
    },
    {
      "name": "Plymouth Jump",
      "region": "Plymouth",
      "country": "England",
      "type": "platform",
      "lat": 50.36312365276711,
      "lng": -4.137364961372148,
      "heights": [17]
    },
    {
      "name": "Minions Quarry",
      "region": "Liskeard",
      "country": "England",
      "type": "cliff",
      "lat": 50.5085631853261,
      "lng": -4.442146406520265,
      "heights": [3, 4, 5, 9, 10, 12, 14]
    },
    {
      "name": "Porth Island Bridge",
      "region": "Cornwall",
      "country": "England",
      "type": "bridge",
      "lat": 50.426621954799835,
      "lng": -5.060728476397507
    },
    {
      "name": "Trevellas Cove",
      "region": "Cornwall",
      "country": "England",
      "type": "cliff",
      "lat": 50.32437844095955,
      "lng": -5.197400298126455,
      "heights": [15, 20]
    },
    {
      "name": "St Ives Harbour",
      "region": "Cornwall",
      "country": "England",
      "type": "platform",
      "lat": 50.21535880764172,
      "lng": -5.475835142644231,
      "heights": [5]
    },
    {
      "name": "Boundi Waterfall",
      "region": "Nampondi",
      "country": "Burkina Faso",
      "type": "cliff",
      "lat": 11.785790691371313,
      "lng": 1.7836822721610008,
      "heights": [5]
    },
    {
      "name": "Blue Eye Cave",
      "region": "Palmeira",
      "country": "Cape Verde",
      "type": "cliff",
      "lat": 16.798637071464846,
      "lng": -22.99229575289448,
      "heights": [5]
    },
    {
      "name": "Ponte Natural",
      "region": "Tarrafal",
      "country": "Cape Verde",
      "type": "cliff",
      "lat": 15.279546966687663,
      "lng": -23.7572573394821,
      "heights": [5, 8]
    },
    {
      "name": "Ponta de Salto",
      "region": "Tarrafal",
      "country": "Cape Verde",
      "type": "cliff",
      "lat": 15.279863204360604,
      "lng": -23.75525571705256,
      "heights": [10]
    },
    {
      "name": "Kirkjufellsfoss",
      "region": "Grundarfjörður",
      "country": "Iceland",
      "type": "cliff",
      "lat": 64.92623721741468,
      "lng": -23.311360419569095,
      "heights":[4]
    },
    {
      "name": "Árskógssandur",
      "region": "Árskógssandur",
      "country": "Iceland",
      "type": "cliff",
      "lat": 65.92617534585055,
      "lng": -18.356585963982134,
      "heights":[4,6],
      "notes": "Strong current"
    },
    {
      "name": "Amundastaoir",
      "region": "Ólafsfjörður",
      "country": "Iceland",
      "type": "cliff",
      "lat": 66.00075636884138,
      "lng": -18.784870737326166,
      "heights":[5,7],
      "notes": "Strong current"
    },
    {
      "name": "Ólafsfjörður Bridge",
      "region": "Ólafsfjörður",
      "country": "Iceland",
      "type": "bridge",
      "lat": 66.0719261974643,
      "lng": -18.663721274930047,
      "heights":[4]
    },
    {
      "name": "Kleifarvegur",
      "region": "Kleifarvegur",
      "country": "Iceland",
      "type": "cliff",
      "lat": 66.09164220427651,
      "lng": -18.645430048134145,
      "heights":[3,4]
    },
    {
      "name": "Ytri Vogatorfur",
      "region": "Fjallabyggð",
      "country": "Iceland",
      "type": "cliff",
      "lat": 66.17348783353613,
      "lng": -18.75837486626045,
      "heights":[5,8]
    },
    {
      "name": "Fnjoska Bridge",
      "region": "Grýtubakkahreppur",
      "country": "Iceland",
      "type": "bridge",
      "lat": 65.89326738466195,
      "lng": -18.041542805058032,
      "heights":[5,18],
      "tags": ["cliff"]
    },
    {
      "name": "Egilsstaðir Bridge",
      "region": "Egilsstaðir",
      "country": "Iceland",
      "type": "bridge",
      "lat": 65.26504140525559,
      "lng": -14.379108541917258,
      "heights":[6,7],
      "tags": ["cliff"]
    },
    {
      "name": "Stuðlagil Canyon",
      "region": "Eiriksstadhir",
      "country": "Iceland",
      "type": "cliff",
      "lat": 65.16381522087185,
      "lng": -15.305842011546611,
      "heights":[15]
    },
    {
      "name": "New York Bridge",
      "region": "Jökuldalsvegur",
      "country": "Iceland",
      "type": "bridge",
      "lat": 65.18943255605105,
      "lng": -15.248651548378875,
      "heights":[17],
      "tags": ["cliff"],
      "notes": "Possible current"
    },
    {
      "name": "Múlaþing Bridge",
      "region": "Múlaþing",
      "country": "Iceland",
      "type": "bridge",
      "lat": 65.10701253206987,
      "lng": -15.53024696036704,
      "heights":[17],
      "tags": ["cliff"],
      "notes": "Possible current"
    },
    {
      "name": "Stjórnarfoss",
      "region": "Kirkjubæjarklaustur",
      "country": "Iceland",
      "type": "cliff",
      "lat": 63.79979941777216,
      "lng": -18.0612583603175,
      "heights":[7]
    },
    {
      "name": "Tungufljót River Bridge",
      "region": "Einiholt",
      "country": "Iceland",
      "type": "bridge",
      "lat": 64.2316448483149,
      "lng": -20.33319506296814,
      "heights":[6,8]
    },
    {
      "name": "Seksi Feis",
      "region": "Gnúpverjahreppur",
      "country": "Iceland",
      "type": "cliff",
      "lat": 64.17520197467357,
      "lng": -20.14572947851851,
      "heights":[5],
      "tags": ["bridge"],
      "notes": "Depth check"
    },
    {
      "name": "Ulfljotsvatn",
      "region": "Steingrímsstöð",
      "country": "Iceland",
      "type": "bridge",
      "lat": 64.12808745880645,
      "lng": -21.018077191576225,
      "heights":[3,6],
      "tags": ["cliff"]
    },
    {
      "name": "Reykjafoss Waterfall",
      "region": "Hveragerði",
      "country": "Iceland",
      "type": "cliff",
      "lat": 64.00227798747231,
      "lng": -21.182367658702272,
      "heights":[3,4]
    },
    {
      "name": "Baula",
      "region": "Hveragerði",
      "country": "Iceland",
      "type": "cliff",
      "lat": 64.01098329630167,
      "lng": -21.187557413853327
    },
    {
      "name": "Þórufoss Waterfall",
      "region": "Kjósarskarðsvegur",
      "country": "Iceland",
      "type": "cliff",
      "lat": 64.26118848865286,
      "lng": -21.369742227855273,
      "heights":[3,5]
    },
    {
      "name": "Vindáshlíð",
      "region": "Kjósarhreppur",
      "country": "Iceland",
      "type": "cliff",
      "lat": 64.29901516244743,
      "lng": -21.43922532798807,
      "heights":[2,4]
    },
    {
      "name": "Skorhagafoss Waterfall",
      "region": "Skorhagafoss",
      "country": "Iceland",
      "type": "cliff",
      "lat": 64.35819604609497,
      "lng": -21.400871061444438,
      "heights":[6,11]
    },
    {
      "name": "Helgufoss Waterfall",
      "region": "Mosfellsbær",
      "country": "Iceland",
      "type": "cliff",
      "lat": 64.17517260404252,
      "lng": -21.531787735627123,
      "heights":[3,4]
    },
    {
      "name": "Tungufoss",
      "region": "Mosfellsbær",
      "country": "Iceland",
      "type": "cliff",
      "lat": 64.17910551396362,
      "lng": -21.680727123846193,
      "heights":[3]
    },
    {
      "name": "Gullinbru",
      "region": "Reykjavík",
      "country": "Iceland",
      "type": "bridge",
      "lat": 64.13406628505976,
      "lng": -21.81332636777716,
      "heights":[7],
      "notes": "Only jump at high tide"
    },
    {
      "name": "Göngu- og hjólabrýr yfir Elliðaárósa",
      "region": "Reykjavík",
      "country": "Iceland",
      "type": "bridge",
      "lat": 64.13106627467339,
      "lng": -21.83584192898403,
      "heights":[3],
      "notes": "Only jump at high tide"
    },
    {
      "name": "Nauthólsvík Geothermal Beach",
      "region": "Reykjavík",
      "country": "Iceland",
      "type": "cliff",
      "lat": 64.12081889594579,
      "lng": -21.932410683516533,
      "heights":[3],
      "notes": "Only jump at high tide"
    },
    {
      "name": "Kleifarvatn",
      "region": "Kleifarvatn",
      "country": "Iceland",
      "type": "cliff",
      "lat": 63.92430524705805,
      "lng": -21.99171043025332,
      "heights":[6,12]
    },
    {
      "name": "Reykjavíkurborg",
      "region": "Reykjavíkurborg",
      "country": "Iceland",
      "type": "cliff",
      "lat": 64.27206444126368,
      "lng": -21.825652276581742,
      "heights":[3,8],
      "notes": "Pretty shallow"
    },
    {
      "name": "Crane Thing",
      "region": "Akranes",
      "country": "Iceland",
      "type": "platform",
      "lat": 64.31388568354905,
      "lng": -22.082560693381684,
      "heights":[11],
      "notes": "Climb time"
    },
    {
      "name": "Hoppland",
      "region": "Akranes",
      "country": "Iceland",
      "type": "platform",
      "lat": 64.31622488778734,
      "lng": -22.095509153179286,
      "heights":[3,13],
      "notes": "Tower, platforms and a trampoline"
    },
    {
      "name": "Eyrarfoss",
      "region": "Geitaberg",
      "country": "Iceland",
      "type": "cliff",
      "lat": 64.42838544748226,
      "lng": -21.66159506619609,
      "heights":[6,8]
    },
    {
      "name": "Andakilsvirkjun Hydropower Station",
      "region": "Hvanneyri",
      "country": "Iceland",
      "type": "cliff",
      "lat": 64.53823474390403,
      "lng": -21.69473536225396,
      "heights":[6,13]
    },
    {
      "name": "Brajarbraut",
      "region": "Borgarnes",
      "country": "Iceland",
      "type": "bridge",
      "lat": 64.53481233250555,
      "lng": -21.925045199770622,
      "heights":[5]
    },
    {
      "name": "Paradísarlaut",
      "region": "Eskdale",
      "country": "Iceland",
      "type": "cliff",
      "lat": 64.75158857563623,
      "lng": -21.554188321262377,
      "heights":[5]
    },
    {
      "name": "Peniscola Castle",
      "region": "Peñíscola",
      "country": "Spain",
      "type": "platform",
      "lat": 40.35997449414138,
      "lng": 0.40802911838125555,
      "heights":[27]
    },
    {
      "name": "Whangarei Falls",
      "region": "Whangārei",
      "country": "New Zealand",
      "type": "cliff",
      "lat": -35.68425974324312,
      "lng": 174.33557225482656
    },
    {
      "name": "Pont Neuf",
      "region": "Aniane",
      "country": "France",
      "type": "bridge",
      "lat": 43.70804118213542,
      "lng": 3.557152583652681,
      "heights":[27]
    },
    {
      "name": "Merimbula Wharf",
      "region": "NSW",
      "country": "Australia",
      "type": "platform",
      "lat": -36.89892765713855,
      "lng": 149.9272884456794
    },
    {
      "name": "St Peter's Pool",
      "region": "Marsaxlokk",
      "country": "Malta",
      "type": "cliff",
      "lat": 35.83303083927374,
      "lng": 14.561950934463782
    },
    {
      "name": "Bar Marina di Corniglia",
      "region": "Corniglia",
      "country": "Italy",
      "type": "cliff",
      "lat": 44.12047719571926,
      "lng": 9.70428260212465
    },
    {
      "name": "Pliva Waterfall",
      "region": "Jajce",
      "country": "Bosnia and Herzegovina",
      "type": "platform",
      "lat": 44.337868548344446,
      "lng": 17.270304235201646
    },
    {
      "name": "Kalmandavi Waterfall",
      "region":	"Maharashtra",
      "country": "India",
      "type":	"cliff"	,
      "lat": 19.86908089101481, 
      "lng": 73.25396722649553
    },
    {
      "name": "Muelle de Azúcar Cliff Dive",
      "region":	"Muelle de Azúcar Beach",
      "country":	"Puerto Rico",
      "type": "platform",	
      "lat": 18.44507146152738, 
      "lng": -67.160576036503
    },
    {
      "name": "Cenote Zemway",
      "region": "Tulum",
      "country": "Mexico",
      "type": "platform",
      "lat": 20.291582250761373,
      "lng": -87.48722306065777,
      "heights":[3, 5, 6, 14],
      "notes": "Might need to book this"
    },
    {
      "name": "Charco Frío",
      "region": "Ceiba",
      "country": "Puerto Rico",
      "type": "cliff",
      "lat": 18.26998186707125,
      "lng": -65.71988396146243,
      "heights":[3, 9],
      "tags": ["swing"]
    },
    {
      "name": "Las Pailas",
      "region": "Luquillo",
      "country": "Puerto Rico",
      "type": "cliff",
      "lat": 18.33823573057026,
      "lng": -65.732003166354,
      "notes": "There's also a natural waterslide here"
    },
    {
      "name": "Las Tinajas Falls",
      "region": "Fajardo",
      "country": "Puerto Rico",
      "type": "swing",
      "lat": 18.272426804445736,
      "lng": -65.72883072209724,
      "heights":[4, 12],
      "tags": ["cliff"]
    },
    {
      "name": "Ponte dei Salti",
      "region": "Verzasca",
      "country": "Switzerland",
      "type": "bridge",
      "lat": 46.26015581393252,
      "lng": 8.835970339879085,
      "heights":[14],
      "tags": ["cliff", "roof"],
      "notes": "Can also jump from the rock underneath the bridge or the roof just a little east of the bridge"
    },
    {
      "name": "Murau Bridge",
      "region": "Murau",
      "country": "Austria",
      "type": "bridge",
      "lat": 47.109563683083394,
      "lng": 14.17088725211896,
      "tags": ["platform"],
      "notes": "Or if you're feeling brave try the gappy jump over the railing from the round slab next the bridge in the grass"
    },
    {
      "name": "Carvalho Beach A",
      "region": "Algarve",
      "country": "Portugal",
      "type": "cliff",
      "lat": 37.086257359362676,
      "lng": -8.431009354628776,
      "heights": [4, 6]
    },
    {
      "name": "Carvalho Beach B",
      "region": "Algarve",
      "country": "Portugal",
      "type": "cliff",
      "lat": 37.086342071212336,
      "lng": -8.432037078934503,
      "heights": [6],
      "notes": "Go up the steps on the side of the beach in the cliff, and then follow the path down to the little cave with a bench, then jump!"
    },
    {
      "name": "Carvalho Beach C",
      "region": "Algarve",
      "country": "Portugal",
      "type": "cliff",
      "lat": 37.08583080944125,
      "lng": -8.430579577963147,
      "heights": [12]
    },
    {
      "name": "Carvalho Beach D",
      "region": "Algarve",
      "country": "Portugal",
      "type": "cliff",
      "lat": 37.086479062731364,
      "lng": -8.431151458380462,
      "heights": [10]
    },
    {
      "name": "Carvalho Beach E",
      "region": "Algarve",
      "country": "Portugal",
      "type": "cliff",
      "lat": 37.08584423119421,
      "lng": -8.431451645836955,
      "heights": [9],
      "notes": "Needs some climbing"
    },
    {
      "name": "Barton Springs Free Area",
      "region": "Texas",
      "country": "United States",
      "type": "swing",
      "lat": 30.264287826206935,
      "lng": -97.76908303994901,
      "tags": ["tree"],
      "notes": "Needs some searching, but it's possible it's been taken down."
    },
    {
      "name": "Ballachulish Bridge",
      "region": "Ballachulish",
      "country": "Scotland",
      "type": "bridge",
      "lat": 56.68943286057432,
      "lng": -5.182485342651557
    },
    {
      "name": "Bahnhofbrücke",
      "region": "Thun",
      "country": "Switzerland",
      "type": "bridge",
      "lat": 46.75673908242034,
      "lng": 7.630134096595748
    },
    {
      "name": "Old Spanish Bridge",
      "region": "Ocho Rios",
      "country": "Jamaica",
      "type": "bridge",
      "lat": 18.353047968992193,
      "lng": -77.04254482221339,
      "tags": ["swing"]
    },
    {
      "name": "Pont-y-Pair Bridge",
      "region": "Betws-y-Coed",
      "country": "Wales",
      "type": "bridge",
      "lat": 53.10127202300146,
      "lng": -3.8075030772389593,
      "notes": "It is illegal to jump off this, you could get a fine if you're caught."
    },
    {
      "name": "Puente medieval de Castro-Urdiales",
      "region": "Cantabria",
      "country": "Spain",
      "type": "bridge",
      "lat": 43.384280198946804,
      "lng": -3.214815402360686
    },
    {
      "name": "Wallingford Bridge",
      "region": "Wallingford",
      "country": "England",
      "type": "bridge",
      "lat": 51.600754051522145,
      "lng": -1.1204342850933844,
      "notes": "Watch out for boats."
    },
    {
      "name": "River Wey Footbridge",
      "region": "Guildford",
      "country": "England",
      "type": "bridge",
      "lat": 51.224695320045875,
      "lng": -0.5769645361675566,
      "tags": ["platform", "tree"],
      "notes": "The platform is the brick wall next to the bridge."
    },
    {
      "name": "Madonna sul Garda",
      "region": "Trento",
      "country": "Italy",
      "type": "cliff",
      "lat": 45.87673341318664,
      "lng": 10.86279986451863,
      "tags": ["bridge"],
      "notes": "Can also jump from the handrail on the bridge."
    },
    {
      "name": "Vila Franca do Campo",
      "region": "Azores",
      "country": "Portugal",
      "type": "cliff",
      "lat": 37.705715332498094,
      "lng": -25.4417170858149
    },
    {
      "name": "Caloura Coast",
      "region": "Caloura",
      "country": "Portugal",
      "type": "cliff",
      "lat": 37.71041679676982,
      "lng": -25.512642680734768,
      "heights": [1, 8]
    }
]

